City_ID,City,Lat,Lng,Max Temp,Humidity,Cloudiness,Wind Speed,Country,Date
0,port lincoln,-34.7333,135.8667,13.58,73,3,2.9,AU,1683577467
1,minas de marcona,-15.2119,-75.1103,20.08,63,4,6.7,PE,1683577468
2,yellowknife,62.456,-114.3525,14.29,51,75,2.57,CA,1683577194
3,waitangi,-43.9535,-176.5597,15.46,95,100,3.13,NZ,1683577468
4,vadso,70.0744,29.7487,3.09,81,75,5.66,NO,1683577468
5,port elizabeth,-33.918,25.5701,17.28,96,0,1.03,ZA,1683577469
6,edinburgh of the seven seas,-37.0676,-12.3116,15.45,63,100,5.11,SH,1683577469
7,wenchang,30.904,118.4887,11.1,78,48,2.17,CN,1683577470
8,ilulissat,69.2167,-51.1,-0.99,86,75,2.57,GL,1683577470
9,margaret river,-33.95,115.0667,17.77,52,100,5.47,AU,1683577470
10,constantia,44.1833,28.65,10.39,92,100,4.07,RO,1683577471
11,impfondo,1.6381,18.0667,24.88,77,77,0.85,CG,1683577471
12,ribeira grande,38.5167,-28.7,17.22,88,40,1.03,PT,1683577471
13,iqaluit,63.7506,-68.5145,-3.15,73,20,9.26,CA,1683577472
14,bethel,41.3712,-73.414,24.79,35,0,4.63,US,1683577472
15,tagiura,32.8817,13.3506,21.36,61,100,14.52,LY,1683577472
16,waingapu,-9.6567,120.2641,25.8,84,98,7.4,ID,1683577473
17,albany,42.6001,-73.9662,21.99,34,7,1.34,US,1683577361
18,port-aux-francais,-49.35,70.2167,5.34,95,100,17.65,TF,1683577474
19,ituiutaba,-18.9689,-49.465,27.48,51,14,0.97,BR,1683577474
20,hanceville,34.0607,-86.7675,28.42,63,100,4.89,US,1683577474
21,adamstown,-25.066,-130.1015,21.73,55,100,6.64,PN,1683577475
22,santa ana,33.7456,-117.8678,25.53,59,20,5.14,US,1683577439
23,aykhal,66.0,111.5,-3.68,95,100,6.64,RU,1683577254
24,stanley,54.868,-1.6985,13.49,92,40,2.06,GB,1683577475
25,pires do rio,-17.2997,-48.2794,25.45,55,12,1.18,BR,1683577476
26,afaahiti,-17.75,-149.2833,27.93,74,98,4.56,PF,1683577476
27,betio village,1.358,172.9211,29.02,79,80,6.72,KI,1683577476
28,grytviken,-54.2811,-36.5092,0.02,81,11,4.85,GS,1683577476
29,greymouth,-42.4667,171.2,15.78,94,100,6.57,NZ,1683577477
30,thompson,55.7435,-97.8558,21.09,28,40,2.06,CA,1683577337
31,tosontsengel,48.7567,98.2839,2.67,47,100,1.61,MN,1683577477
32,kavieng,-2.5744,150.7967,27.81,77,99,2.21,PG,1683577477
33,nogliki,51.8333,143.1667,-1.13,93,100,2.5,RU,1683577477
34,kapuskasing,49.4169,-82.4331,14.0,24,75,3.6,CA,1683577478
35,las trojes,14.0667,-85.9833,33.25,28,77,3.84,HN,1683577478
36,tiksi,71.6872,128.8694,-12.4,88,99,4.4,RU,1683577478
37,ushuaia,-54.8,-68.3,9.81,46,40,4.12,AR,1683577478
38,carnarvon,-24.8667,113.6333,22.51,65,54,0.25,AU,1683577479
39,yemva,62.59,50.8594,0.07,85,80,3.93,RU,1683577479
40,ulladulla,-35.35,150.4667,10.46,76,73,3.68,AU,1683577479
41,strezhevoy,60.7333,77.5889,1.89,53,7,7.11,RU,1683577479
42,zhangye,38.9342,100.4517,6.33,83,100,3.02,CN,1683577480
43,codrington,-38.2667,141.9667,12.93,77,100,4.96,AU,1683577480
44,chonchi,-42.6128,-73.8092,9.51,84,100,0.52,CL,1683577480
45,puerto natales,-51.7236,-72.4875,7.25,81,75,5.66,CL,1683577480
46,blackmans bay,-43.0167,147.3167,11.52,72,83,6.64,AU,1683577480
47,talnakh,69.4865,88.3972,-2.66,94,100,2.99,RU,1683577481
48,tura,25.5198,90.2201,23.94,32,0,2.07,IN,1683577481
49,neiafu,-18.65,-173.9833,27.38,89,75,1.03,TO,1683577481
50,bilibino,68.0546,166.4372,-6.02,87,100,1.16,RU,1683577481
51,anadyr,64.75,177.4833,-3.72,93,100,8.0,RU,1683577482
52,dryden,49.7833,-92.7503,16.16,51,75,6.17,CA,1683577482
53,arraial do cabo,-22.9661,-42.0278,24.92,83,20,6.17,BR,1683577482
54,morinville,53.8001,-113.652,17.69,58,40,5.66,CA,1683577396
55,huilong,31.8111,121.655,12.29,69,0,1.31,CN,1683577482
56,egilsstadir,65.2653,-14.3948,7.95,93,100,4.12,IS,1683577483
57,vilyuchinsk,52.9306,158.4028,4.15,89,100,4.28,RU,1683577483
58,batalha,-9.6778,-37.1247,29.28,52,16,6.82,BR,1683577483
59,huarmey,-10.0681,-78.1522,25.33,75,50,4.87,PE,1683577483
60,bardai,11.65,7.2333,30.6,24,59,3.33,NG,1683577484
61,happy valley-goose bay,53.3168,-60.3315,5.17,48,75,6.69,CA,1683577484
62,qaqortoq,60.7167,-46.0333,2.39,82,93,1.4,GL,1683577484
63,ust-nera,64.5667,143.2,-1.56,85,100,1.98,RU,1683577484
64,avarua,-21.2078,-159.775,27.03,83,75,5.66,CK,1683577485
65,naze,28.3667,129.4833,19.51,69,59,7.1,JP,1683577485
66,talgram,27.05,79.65,28.73,27,0,2.53,IN,1683577485
67,rumphi,-11.0186,33.8575,15.08,94,2,1.48,MW,1683577485
68,nemuro,43.3236,145.575,2.44,81,10,0.56,JP,1683577486
69,freeport,40.6576,-73.5832,26.94,36,0,6.17,US,1683577486
70,bredasdorp,-34.5322,20.0403,13.58,93,30,1.46,ZA,1683577486
71,cabo san lucas,22.8909,-109.9124,32.17,30,40,2.06,MX,1683577486
72,hithadhoo,-0.6,73.0833,28.24,75,37,4.77,MV,1683577487
73,isfana,39.8386,69.5306,8.31,52,0,2.12,KG,1683577487
74,mettmann,51.25,6.9667,17.12,76,20,3.09,DE,1683577487
75,dhidhdhoo,6.8833,73.1,29.32,70,77,5.21,MV,1683577487
76,kavaratti,10.5669,72.642,29.21,60,6,3.88,IN,1683577488
77,isafjordur,66.0755,-23.124,6.29,91,77,3.05,IS,1683577488
78,jinchang,38.4953,102.1739,7.36,75,100,2.01,CN,1683577488
79,dapa,9.7594,126.0531,27.17,77,64,1.64,PH,1683577488
80,guerrero negro,27.9769,-114.0611,19.6,57,0,8.98,MX,1683577489
81,atafu village,-8.5421,-172.5159,29.05,76,8,5.72,TK,1683577489
82,college,64.8569,-147.8028,10.18,59,75,2.57,US,1683577489
83,lionel town,17.8101,-77.2406,30.94,59,90,5.51,JM,1683577489
84,susuman,62.7833,148.1667,-1.8,89,64,0.56,RU,1683577490
85,kitimat,54.0524,-128.6534,18.28,42,15,0.45,CA,1683577490
86,cestos city,5.46,-9.5828,27.92,82,25,4.62,LR,1683577490
87,vilyuysk,63.7553,121.6247,-11.46,93,59,1.87,RU,1683577490
88,invercargill,-46.4,168.35,12.36,95,58,3.42,NZ,1683577491
89,santa marta,11.2408,-74.199,36.03,49,20,3.09,CO,1683577409
90,matadi,-5.8167,13.45,26.17,91,18,1.15,CD,1683577491
91,woolgoolga,-30.1106,153.2007,12.93,52,2,3.54,AU,1683577491
92,lebu,-37.6167,-73.65,12.74,64,100,6.0,CL,1683577491
93,paita,-5.0892,-81.1144,27.53,70,8,6.39,PE,1683577492
94,san antonio de pale,-1.4014,5.6325,28.68,75,20,4.06,GQ,1683577492
95,puerto ayora,-0.7393,-90.3518,31.98,89,61,2.68,EC,1683577492
96,merizo village,13.2658,144.6691,27.31,91,2,4.91,GU,1683577492
97,la passe,45.5549,-0.8967,16.13,81,100,1.71,FR,1683577492
98,coahuayana de hidalgo,18.7,-103.6583,34.09,44,1,3.73,MX,1683577493
99,olonkinbyen,70.9221,-8.7187,1.71,100,100,1.79,SJ,1683577493
100,haiku-pauwela,20.9219,-156.3051,27.01,55,20,9.77,US,1683577493
101,acapulco de juarez,16.8634,-99.8901,31.9,66,20,4.63,MX,1683577222
102,touros,-5.1989,-35.4608,27.22,77,59,5.68,BR,1683577494
103,wanning,18.8003,110.3967,25.71,91,85,2.82,CN,1683577494
104,badger,64.8,-147.5333,10.14,53,40,2.57,US,1683577494
105,whitehorse,60.7161,-135.0538,10.57,32,40,7.15,CA,1683577247
106,lompoc,34.6391,-120.4579,23.16,68,20,9.77,US,1683577302
107,udachny,66.4167,112.4,-3.08,79,100,10.32,RU,1683577495
108,mejit,10.2753,170.8646,25.66,88,100,1.8,MH,1683577495
109,mount gambier,-37.8333,140.7667,11.42,83,89,2.71,AU,1683577495
110,san pedro pochutla,15.7333,-96.4667,34.28,51,27,3.94,MX,1683577495
111,airway heights,47.6446,-117.5933,17.84,40,75,2.57,US,1683577496
112,vorgashor,67.5833,63.95,-6.52,97,100,2.86,RU,1683577496
113,hammerfest,70.6634,23.6821,1.25,100,75,1.54,NO,1683577496
114,ulricehamn,57.7916,13.4142,12.3,53,100,1.58,SE,1683577496
115,coruripe,-10.1256,-36.1756,26.56,77,18,3.25,BR,1683577497
116,west island,-12.1568,96.8225,25.99,94,40,1.54,CC,1683577497
117,pacific grove,36.6177,-121.9166,18.52,75,40,5.14,US,1683577260
118,st. john's,47.5649,-52.7093,8.75,88,100,13.38,CA,1683577497
119,ramnicu sarat,45.3833,27.05,6.87,88,100,6.82,RO,1683577497
120,ngereklmadel,7.4883,134.4856,25.05,88,75,3.09,PW,1683577498
121,port mathurin,-19.6833,63.4167,25.82,74,59,9.78,MU,1683577498
122,al qadarif,14.0349,35.3834,33.68,11,4,3.9,SD,1683577498
123,hermanus,-34.4187,19.2345,16.56,87,3,0.9,ZA,1683577498
124,ouesso,1.6136,16.0517,26.34,75,100,0.78,CG,1683577498
125,newman,37.3138,-121.0208,22.19,50,3,1.79,US,1683577499
126,dzhangala,49.2167,50.3333,8.2,63,100,10.05,KZ,1683577499
127,ha'il,27.5219,41.6907,25.01,19,0,3.09,SA,1683577243
128,gadzhiyevo,69.2551,33.3362,0.79,97,100,6.55,RU,1683577499
129,yuzhno-kurilsk,44.0306,145.8556,1.74,89,15,3.27,RU,1683577499
130,ta`u,-14.2336,-169.5144,27.52,79,30,5.98,AS,1683577500
131,new norfolk,-42.7826,147.0587,12.18,66,98,0.45,AU,1683577500
132,kruisfontein,-34.0033,24.7314,16.05,88,86,2.87,ZA,1683577500
133,tralee,52.2704,-9.7026,11.42,93,21,2.04,IE,1683577500
134,mikhaylovskoye,51.8239,79.7172,17.81,26,12,2.8,RU,1683577501
135,abanilla,38.2054,-1.0415,20.35,79,77,2.52,ES,1683577501
136,taiynsha,53.8478,69.7639,9.71,49,100,1.24,KZ,1683577502
137,tolanaro,-25.0319,46.9987,23.04,94,20,7.2,MG,1683577502
138,lodja,-3.4833,23.4333,23.2,80,44,0.89,CD,1683577503
139,papatowai,-46.5619,169.4708,14.21,86,100,3.24,NZ,1683577503
140,verkhnevilyuysk,63.4453,120.3167,-9.6,96,100,1.73,RU,1683577504
141,hasaki,35.7333,140.8333,11.23,62,100,8.68,JP,1683577504
142,portland,45.5234,-122.6762,19.7,56,75,3.13,US,1683577238
143,nikolayevsk-on-amure,53.1406,140.73,1.43,79,100,2.05,RU,1683577505
144,iskateley,67.6803,53.1512,-0.3,96,100,6.96,RU,1683577279
145,taoudenni,22.6783,-3.9836,38.69,8,100,4.65,ML,1683577511
146,petropavlovsk-kamchatsky,53.0452,158.6483,3.33,65,75,6.0,RU,1683577511
147,thunder bay,48.4001,-89.3168,13.99,47,75,5.14,CA,1683577512
148,wamba,8.9333,8.6,28.8,53,17,0.51,NG,1683577512
149,korla,41.7597,86.1469,11.77,40,0,1.45,CN,1683577513
150,panchagarh,26.3313,88.562,25.75,47,0,3.57,BD,1683577513
151,puerto baquerizo moreno,-0.9,-89.6,27.55,89,40,4.63,EC,1683577513
152,tobol'sk,58.2,68.2667,2.17,46,0,2.77,RU,1683577369
153,wynyard,-41.0,145.7167,9.43,93,100,4.34,AU,1683577514
154,grantsville,40.5999,-112.4644,23.86,37,40,4.02,US,1683577514
155,aasiaat,68.7098,-52.8699,-1.9,83,100,6.0,GL,1683577515
156,sambuca di sicilia,37.6494,13.1109,13.42,96,100,0.94,IT,1683577515
157,kankan,10.3854,-9.3057,25.22,77,100,3.27,GN,1683577516
158,yanam,16.7333,82.2167,27.34,89,70,1.07,IN,1683577516
159,luderitz,-26.6481,15.1594,16.15,62,0,5.49,NA,1683577517
160,iwanai,42.9744,140.5089,4.5,81,9,3.17,JP,1683577517
161,fort saskatchewan,53.7168,-113.2187,18.36,50,24,2.24,CA,1683577517
162,alvaraes,-3.2208,-64.8042,28.36,87,92,1.83,BR,1683577518
163,karratha,-20.7377,116.8463,23.67,39,2,6.45,AU,1683577518
164,geraldton,-28.7667,114.6,21.23,43,75,6.17,AU,1683577518
165,meulaboh,4.1363,96.1285,24.36,91,100,2.57,ID,1683577518
166,choibalsan,48.0667,114.5,9.02,37,4,2.21,MN,1683577519
167,svetlyy,54.675,20.1347,8.87,70,6,3.02,RU,1683577519
168,budva,42.2864,18.84,19.14,88,0,0.51,ME,1683577519
169,mariehamn,60.0973,19.9348,6.57,70,0,5.14,AX,1683577520
170,gejiu,23.306,103.1635,13.27,95,100,2.39,CN,1683577520
171,arteche,12.2645,125.4048,24.99,86,61,0.81,PH,1683577520
172,mangai,-4.05,19.5333,21.82,98,99,0.69,CD,1683577521
173,pervomayskoye,43.919,46.7102,14.83,73,77,2.8,RU,1683577521
174,san juan bautista,-14.0108,-75.7358,30.94,37,2,4.36,PE,1683577521
175,rongelap,11.1635,166.8941,27.07,81,100,8.44,MH,1683577522
176,ancud,-41.8697,-73.8203,9.03,79,100,0.58,CL,1683577522
177,kayangel,8.0823,134.7173,28.21,75,100,0.59,PW,1683577522
178,crane,31.3974,-102.3501,33.53,11,0,1.2,US,1683577523
179,lihue,21.9789,-159.3672,26.58,70,40,7.72,US,1683577523
180,ballina,-28.8667,153.5667,7.66,52,2,3.95,AU,1683577523
181,carrizal,10.3499,-66.9863,21.67,43,95,2.73,VE,1683577524
182,wailua homesteads,22.0669,-159.378,26.24,70,40,7.72,US,1683577524
183,minzhu,43.7286,127.3447,5.05,41,0,2.16,CN,1683577524
184,pisco,-13.7,-76.2167,22.03,78,7,4.12,PE,1683577470
185,al muharraq,26.2572,50.6119,32.1,23,0,5.14,BH,1683577375
186,scone,56.4194,-3.4051,13.83,93,100,0.45,GB,1683577525
187,skowhegan,44.7651,-69.7192,17.99,28,11,6.03,US,1683577526
188,arkhangel'sk,64.5401,40.5433,2.48,91,100,2.01,RU,1683577468
189,badr hunayn,23.7829,38.7905,25.46,35,1,1.03,SA,1683577527
190,asa,58.0167,14.6,11.71,56,89,4.9,SE,1683577527
191,livny,52.4253,37.6069,4.78,67,100,3.56,RU,1683577528
192,sao lourenco do oeste,-26.3592,-52.8511,17.4,85,99,2.35,BR,1683577528
193,uliastay,47.7417,96.8444,1.9,62,100,1.69,MN,1683577528
194,dunedin,-45.8742,170.5036,17.11,70,100,3.13,NZ,1683577528
195,xiaoweizhai,26.1903,107.5125,13.55,98,100,0.82,CN,1683577529
196,punta arenas,-53.15,-70.9167,7.06,81,100,4.12,CL,1683577529
197,glendive,47.1053,-104.7125,18.75,51,75,3.09,US,1683577530
198,tazovsky,67.4667,78.7,-8.94,93,98,10.89,RU,1683577530
199,kolokani,13.5728,-8.0339,29.9,37,100,2.15,ML,1683577530
200,dwarka,22.2394,68.9678,27.39,75,5,4.01,IN,1683577531
201,fort bragg,35.139,-79.006,29.34,47,20,4.12,US,1683577532
202,bazhovo,55.0604,61.6054,3.09,42,8,4.14,RU,1683577532
203,rawson,-43.3002,-65.1023,17.36,38,11,4.45,AR,1683577533
204,cartagena,10.3997,-75.5144,32.79,66,20,7.72,CO,1683577261
205,mioveni,44.9566,24.9378,9.19,97,100,1.9,RO,1683577533
206,hawaiian paradise park,19.5933,-154.9731,26.73,69,0,4.63,US,1683577534
207,saint-valery-en-caux,49.8667,0.7333,13.75,87,100,5.26,FR,1683577534
208,kudahuvadhoo,2.6708,72.8944,28.24,76,24,4.09,MV,1683577535
209,bosaso,11.2842,49.1816,27.9,60,7,1.81,SO,1683577535
210,pailon,-17.65,-62.75,22.82,72,100,1.91,BO,1683577535
211,ghat,24.9647,10.1728,32.24,14,100,2.47,LY,1683577536
212,flying fish cove,-10.4217,105.6791,26.82,89,75,3.6,CX,1683577536
213,greenwood,34.1668,-82.1165,28.23,58,0,6.17,US,1683577470
214,galliano,29.4422,-90.2992,30.56,66,40,4.12,US,1683577537
215,jamestown,42.097,-79.2353,17.8,42,0,5.66,US,1683577464
216,vernon,50.2581,-119.2691,17.74,59,100,2.24,CA,1683577251
217,severo-yeniseyskiy,60.3725,93.0408,7.95,83,99,2.97,RU,1683577537
218,island harbour,50.724,-1.2758,14.04,94,100,3.13,GB,1683577538
219,selizharovo,56.8519,33.4487,3.51,60,86,0.35,RU,1683577538
220,oranjemund,-28.55,16.4333,13.51,91,0,4.07,NA,1683577538
221,hastings,50.8552,0.5729,13.43,45,100,6.31,GB,1683577538
222,georgetown,5.4112,100.3354,28.96,79,20,0.0,MY,1683577446
223,keflavik,64.0049,-22.5624,10.95,100,100,5.14,IS,1683577539
224,inirida,3.8653,-67.9239,30.21,70,98,1.19,CO,1683577539
225,holmsund,63.706,20.3641,4.41,80,0,2.68,SE,1683577539
226,trinidad,-14.8333,-64.9,23.99,83,100,3.09,BO,1683577540
227,kerikeri,-35.2268,173.9474,19.95,96,100,2.24,NZ,1683577540
228,kodiak,57.79,-152.4072,2.73,87,100,9.26,US,1683577540
229,aoulef,26.9667,1.0833,32.78,10,1,6.58,DZ,1683577540
230,independencia,-5.3964,-40.3086,28.14,56,43,2.58,BR,1683577545
231,hovd,48.0056,91.6419,2.65,60,66,2.81,MN,1683577546
232,starkville,33.4504,-88.8184,28.71,69,75,0.0,US,1683577546
233,zaozersk,69.4005,32.4476,0.67,96,100,4.79,RU,1683577546
234,weno,7.4515,151.8468,25.97,89,40,0.0,FM,1683577546
235,prince rupert,54.3161,-130.3201,10.05,82,0,5.14,CA,1683577547
236,malmberget,67.1753,20.6549,6.31,57,100,3.09,SE,1683577547
237,saipan,15.1355,145.701,26.47,100,0,3.09,MP,1683577547
238,tanque verde,32.2517,-110.7373,32.25,10,0,3.6,US,1683577547
239,utrik,11.2278,169.8474,26.75,84,100,7.84,MH,1683577548
240,bushehr,28.9684,50.8385,27.05,29,0,0.0,IR,1683577548
241,derzhavinsk,51.1,66.3167,15.08,47,100,5.48,KZ,1683577548
242,bay harbor,30.1471,-85.6146,26.04,72,75,4.12,US,1683577548
243,atherton,53.5237,-2.4935,14.32,90,100,2.92,GB,1683577277
244,gluckstadt,53.7833,9.4167,16.13,44,22,4.36,DE,1683577549
245,viedma,-40.8135,-62.9967,16.21,41,3,3.43,AR,1683577549
246,prince george,53.9166,-122.753,15.7,44,0,2.57,CA,1683577549
247,east london,-33.0153,27.9116,18.09,86,39,5.88,ZA,1683577549
248,allapalli,19.4167,80.0667,31.06,51,15,1.51,IN,1683577550
249,east ballina,-28.8667,153.5833,7.67,52,2,4.22,AU,1683577550
250,alofi,-19.0595,-169.9187,25.94,89,20,2.57,NU,1683577432
251,beitbridge,-22.2167,30.0,19.49,80,4,6.16,ZW,1683577550
252,port douglas,-16.4833,145.4667,23.21,80,82,6.9,AU,1683577550
253,tonkino,57.3726,46.4629,1.22,71,7,0.99,RU,1683577551
254,treviglio,45.5238,9.5895,19.49,72,75,2.06,IT,1683577551
255,saint-denis,48.9167,2.3333,18.43,77,0,2.06,FR,1683577551
256,ulimang,7.6242,134.6421,25.23,77,94,0.94,PW,1683577551
257,san juan de miraflores,-12.1629,-76.9635,23.43,79,51,3.77,PE,1683577552
258,nenjiang,49.1833,125.2167,5.55,32,0,6.82,CN,1683577552
259,veraval,20.9,70.3667,27.69,78,7,5.23,IN,1683577443
260,brookings,44.3114,-96.7984,22.81,48,100,4.12,US,1683577451
261,brandon,27.9378,-82.2859,34.0,48,0,3.09,US,1683577547
262,tabou,4.423,-7.3528,27.38,83,40,3.53,CI,1683577553
263,kisanga,-7.4362,37.7034,23.34,85,96,0.33,TZ,1683577553
264,palmer,42.1584,-72.3287,23.02,32,75,6.69,US,1683577418
265,lorengau,-2.0226,147.2712,27.69,77,100,1.94,PG,1683577553
266,santanyi,39.3546,3.1291,19.66,81,79,2.25,ES,1683577553
267,yurty,56.0498,97.6348,10.26,58,8,1.78,RU,1683577554
268,axim,4.8699,-2.2405,27.59,78,100,3.44,GH,1683577554
269,walvis bay,-22.9575,14.5053,12.53,94,0,1.03,NA,1683577554
270,abadan,30.3392,48.3043,27.97,32,40,1.03,IR,1683577554
271,bermeo,43.4209,-2.7215,19.02,72,100,0.54,ES,1683577554
272,chernyanka,50.9409,37.8069,5.28,64,99,3.16,RU,1683577555
273,nadym,65.5333,72.5167,-7.71,83,100,12.72,RU,1683577555
274,monte alegre,-2.0078,-54.0692,29.65,65,72,1.94,BR,1683577555
275,south hedland,-20.4089,118.5983,22.96,31,1,6.69,AU,1683577555
276,urucara,-2.5364,-57.76,28.15,78,98,0.81,BR,1683577556
277,mil'kovo,55.6078,37.7956,6.22,62,44,0.26,RU,1683577556
278,neryungri,56.6709,124.6491,-10.4,97,44,1.92,RU,1683577556
279,longyearbyen,78.2186,15.6401,-2.09,86,75,2.06,SJ,1683577381
280,capao da canoa,-29.7456,-50.0097,21.08,71,78,4.6,BR,1683577556
281,kapa'a,22.0752,-159.319,26.99,70,40,7.72,US,1683577557
282,ginir,7.1333,40.7,15.28,88,43,1.78,ET,1683577557
283,geneina,13.45,22.45,29.97,29,67,4.44,SD,1683577557
284,tommot,58.9564,126.2925,-9.53,99,89,0.48,RU,1683577557
285,turpan,42.9333,89.1667,18.48,25,95,2.15,CN,1683577558
286,misratah,32.3754,15.0925,20.53,62,74,14.81,LY,1683577558
287,aleksandrovskoye,44.7142,43.0008,8.63,97,100,2.54,RU,1683577558
288,vila franca do campo,37.7167,-25.4333,17.23,92,100,0.33,PT,1683577558
289,forster,-32.1667,152.5167,12.3,59,83,2.24,AU,1683577558
290,jayapura,-2.5333,140.7,25.66,92,99,2.7,ID,1683577559
291,zuera,41.8677,-0.7898,23.93,36,84,6.81,ES,1683577559
292,wewak,-3.5534,143.6268,26.37,87,93,1.95,PG,1683577559
293,ternate,0.8,127.4,27.59,81,99,2.56,ID,1683577559
294,port alfred,-33.5906,26.891,16.21,93,98,4.87,ZA,1683577560
295,lokomotivnyy,53.0118,60.5684,7.45,50,100,1.34,RU,1683577560
296,arvayheer,46.2639,102.775,6.82,28,100,1.1,MN,1683577560
297,tselinnoye,53.0833,85.6667,14.31,49,0,3.28,RU,1683577280
298,kolonia town,6.964,158.206,26.0,89,40,2.06,FM,1683577560
299,zapolyarnyy,69.4154,30.8136,1.6,98,100,1.74,RU,1683577561
300,mawlamyinegyunn,16.3833,95.2667,28.14,74,71,1.99,MM,1683577561
301,praia da vitoria,38.7333,-27.0667,18.14,88,75,0.8,PT,1683577561
302,marysville,48.0518,-122.1771,19.33,66,0,4.63,US,1683577561
303,tawau,4.2498,117.8871,25.07,85,100,1.88,MY,1683577562
304,guangyuan,32.442,105.823,13.16,98,100,1.55,CN,1683577562
305,bim son,20.0781,105.8603,24.31,94,100,3.47,VN,1683577563
306,sukumo,32.9333,132.7333,11.61,71,97,1.87,JP,1683577563
307,tangalle,6.024,80.7911,25.45,91,100,3.85,LK,1683577564
308,talakan,50.3167,130.3667,1.29,98,100,5.72,RU,1683577564
309,bako,5.7833,36.5667,17.59,90,100,1.9,ET,1683577565
310,sierra grande,-41.606,-65.3557,19.38,33,4,1.79,AR,1683577565
311,esquel,-42.9,-71.3167,11.42,44,93,2.67,AR,1683577408
312,patterson,37.4716,-121.1297,20.58,50,25,2.1,US,1683577566
313,villa gesell,-37.2639,-56.973,15.59,68,99,8.73,AR,1683577566
314,menongue,-14.6585,17.691,17.75,47,12,2.24,AO,1683577567
315,al qusayr,34.5091,36.5798,14.8,82,4,0.61,SY,1683577567
316,wynnum,-27.45,153.1667,9.9,61,0,4.12,AU,1683577567
317,manta,-0.95,-80.7333,29.88,66,40,5.64,EC,1683577568
318,colonia,50.9333,6.95,17.7,80,0,1.54,DE,1683577568
319,kudachi,16.6333,74.85,26.71,66,100,3.22,IN,1683577568
320,springbok,-29.6643,17.8865,13.98,31,1,1.58,ZA,1683577569
321,dudinka,69.4058,86.1778,-2.43,97,99,2.36,RU,1683577569
322,olinda,-8.0089,-34.8553,27.85,69,40,5.14,BR,1683577459
323,farasan,16.7022,42.1183,29.3,72,56,1.68,SA,1683577570
324,enewetak,11.3474,162.3373,27.35,82,100,8.63,MH,1683577570
325,bontang,0.1333,117.5,25.38,90,100,1.79,ID,1683577570
326,north platte,41.1239,-100.7654,25.62,27,0,2.57,US,1683577571
327,chaman,30.9236,66.4512,20.18,15,0,1.89,PK,1683577572
328,porto franco,-6.3383,-47.3992,29.48,71,18,1.56,BR,1683577572
329,albert lea,43.648,-93.3683,24.42,60,0,0.0,US,1683577572
330,lerwick,60.1545,-1.1494,8.0,99,100,6.63,GB,1683577573
331,hadibu,12.65,54.0333,28.61,67,81,0.77,YE,1683577573
332,oujda-angad,34.6805,-1.9076,21.35,35,0,2.06,MA,1683577573
333,murun-kuren,49.6342,100.1625,4.54,96,100,2.45,MN,1683577574
334,namibe,-15.1961,12.1522,23.85,73,94,1.57,AO,1683577574
335,el calafate,-50.3408,-72.2768,7.72,65,14,3.11,AR,1683577575
336,remire-montjoly,4.9167,-52.2667,28.02,78,75,5.66,GF,1683577575
337,richards bay,-28.783,32.0377,19.42,89,100,3.57,ZA,1683577575
338,port-vila,-17.7338,168.3219,20.78,94,20,0.51,VU,1683577575
339,sant lluis,39.8526,4.2594,17.22,72,20,1.54,ES,1683577576
340,inari,68.906,27.0288,7.11,99,100,1.81,FI,1683577576
341,ulysses,37.5814,-101.3552,28.16,19,0,5.14,US,1683577576
342,isiolo,0.3546,37.5822,20.65,74,81,5.45,KE,1683577577
343,mukalla,14.5425,49.1242,29.05,55,7,0.94,YE,1683577577
344,barra de santo antonio,-9.4047,-35.5072,28.6,76,21,3.15,BR,1683577578
345,sishui,35.6489,117.2758,13.12,41,100,0.42,CN,1683577578
346,mugia,43.1041,-9.2179,17.87,97,100,4.64,ES,1683577578
347,regina,50.4501,-104.6178,15.02,55,100,6.17,CA,1683577498
348,pasuquin,18.3328,120.6177,26.56,83,100,3.99,PH,1683577579
349,queenstown,-31.8976,26.8753,10.91,82,91,0.94,ZA,1683577579
350,jiazi,22.8779,116.067,21.41,80,100,7.02,CN,1683577580
351,prey veng,11.4868,105.3253,28.63,71,100,2.29,KH,1683577580
352,itaueira,-7.6033,-43.0256,33.06,33,12,1.97,BR,1683577580
353,ra's bayrut,33.9,35.4833,19.81,77,20,2.06,LB,1683577581
354,ust'-kalmanka,52.1207,83.305,15.31,46,52,2.96,RU,1683577581
355,cova figueira,14.8905,-24.2934,20.95,79,0,7.31,CV,1683577581
356,kharp,66.8014,65.8081,-12.48,92,20,3.28,RU,1683577582
357,boa vista,2.8197,-60.6733,28.99,74,40,3.09,BR,1683577582
358,penticton,49.4806,-119.5858,19.21,48,75,2.57,CA,1683577583
359,dawei,14.0833,98.2,26.5,88,100,1.22,MM,1683577583
360,bairnsdale,-37.8333,147.6167,10.03,91,98,4.38,AU,1683577583
361,velyka pysarivka,50.4259,35.485,5.72,64,98,3.33,UA,1683577584
362,antsiranana,-12.2787,49.2917,24.8,77,0,5.47,MG,1683577584
363,hobyo,5.3505,48.5268,27.66,79,13,10.93,SO,1683577585
364,chokwe,-24.5333,32.9833,18.84,96,42,1.5,MZ,1683577585
365,mani,4.8172,-72.2886,32.7,53,80,1.53,CO,1683577585
366,makokou,0.5738,12.8642,23.52,91,98,0.71,GA,1683577586
367,nueve de julio,-35.4444,-60.8831,17.76,60,0,4.02,AR,1683577521
368,opuwo,-18.0607,13.84,22.33,34,5,3.43,NA,1683577586
369,klaksvik,62.2266,-6.589,9.51,98,87,5.06,FO,1683577587
370,longboat key,27.4125,-82.659,31.27,52,0,5.66,US,1683577587
371,bishkul,54.7803,69.1033,9.59,40,100,2.57,KZ,1683577588
372,bayanaul,50.7889,75.6956,16.51,29,20,3.1,KZ,1683577588
373,nova vicosa,-17.8919,-39.3719,25.56,80,1,3.64,BR,1683577588
374,hamilton,39.1834,-84.5333,26.6,63,75,4.63,US,1683577327
375,boumagueur,35.5052,5.5525,16.12,56,58,6.89,DZ,1683577589
376,baiti,13.745,-14.7482,36.38,14,100,2.36,SN,1683577589
377,argo,37.6333,22.7333,18.77,61,100,0.73,GR,1683577589
378,isla mujeres,21.2311,-86.731,30.09,73,1,5.97,MX,1683577590
379,mizque,-17.941,-65.3402,19.81,58,100,2.96,BO,1683577590
380,murzuq,25.9155,13.9184,28.77,12,97,4.61,LY,1683577590
381,saudarkrokur,65.7461,-19.6394,6.05,90,100,1.6,IS,1683577591
382,puerto colombia,10.9878,-74.9547,32.05,76,46,9.2,CO,1683577591
383,mhangura,-16.8939,30.1683,13.22,63,0,1.15,ZW,1683577592
384,sabang,5.8933,95.3214,27.53,78,100,9.89,ID,1683577592
385,okhotsk,59.3833,143.3,0.86,82,37,0.31,RU,1683577592
386,merritt,50.1123,-120.7942,9.65,86,100,1.16,CA,1683577592
387,nadi,-17.8,177.4167,24.0,83,20,3.09,FJ,1683577593
388,lithia springs,33.794,-84.6605,28.28,70,20,3.09,US,1683577595
389,antonio enes,-16.2325,39.9086,23.62,67,20,2.71,MZ,1683577595
390,kingston,17.997,-76.7936,30.53,73,20,9.77,JM,1683577340
391,goz beida,13.95,20.55,30.19,40,6,3.22,TD,1683577595
392,east wenatchee bench,47.4257,-120.2812,20.6,50,0,6.69,US,1683577596
393,blacon,53.2083,-2.9253,15.32,82,20,4.63,GB,1683577596
394,kasongo,-4.45,26.6667,21.65,94,72,1.25,CD,1683577596
395,ubari,26.5921,12.7805,30.78,10,95,7.86,LY,1683577596
396,yekaterinovka,52.0508,44.3451,5.75,61,100,4.96,RU,1683577597
397,niort,46.3333,-0.3333,15.09,84,100,2.48,FR,1683577597
398,nabire,-3.3667,135.4833,25.44,88,90,1.02,ID,1683577597
399,condado,21.8767,-79.8403,28.15,62,71,2.79,CU,1683577597
400,midvagur,62.0511,-7.1939,9.46,100,100,3.6,FO,1683577598
401,oruro,-17.9833,-67.15,16.27,29,75,3.09,BO,1683577598
402,billings,45.7833,-108.5007,20.09,26,40,4.92,US,1683577598
403,bubaque,11.2833,-15.8333,26.65,77,100,5.11,GW,1683577598
404,mhamid,29.82,-5.72,31.32,10,0,3.54,MA,1683577599
405,glace bay,46.1969,-59.957,8.83,89,75,6.69,CA,1683577599
406,serafimovich,49.5786,42.736,9.79,47,100,5.64,RU,1683577599
407,sambava,-14.2667,50.1667,23.41,87,7,4.97,MG,1683577599
408,fedorovka,53.6314,62.7078,6.67,44,83,3.19,KZ,1683577600
409,selfoss,63.9331,-20.9971,10.58,94,100,1.6,IS,1683577600
410,curillo,1.0333,-75.9191,28.25,79,74,1.56,CO,1683577600
411,loudi,27.7344,111.9944,15.51,85,12,1.36,CN,1683577600
412,progreso,21.2833,-89.6667,38.95,65,4,8.35,MX,1683577600
413,sao jose da laje,-9.0097,-36.0583,25.23,78,21,3.96,BR,1683577601
414,otok,45.1467,18.8839,12.7,84,97,3.1,HR,1683577601
415,sitka,57.0531,-135.33,8.94,66,75,2.57,US,1683577601
416,prineville,44.2999,-120.8345,10.25,78,75,0.0,US,1683577410
417,brisas de zicatela,15.8369,-97.0419,32.29,66,0,3.09,MX,1683577602
418,beberibe,-4.1797,-38.1306,26.85,79,22,3.53,BR,1683577602
419,kaa-khem,51.6833,94.7333,10.71,78,100,0.92,RU,1683577602
420,doka,13.5167,35.7667,36.2,9,91,6.53,SD,1683577602
421,horqueta,-23.3428,-57.0597,22.5,84,100,2.49,PY,1683577602
422,jabor,5.921,169.6434,28.27,81,99,7.8,MH,1683577603
423,uturoa,-16.7333,-151.4333,27.66,73,28,3.65,PF,1683577603
424,fort st. john,56.2499,-120.8529,14.94,51,75,3.09,CA,1683577311
425,kharovsk,59.9642,40.1912,2.98,80,66,2.23,RU,1683577603
426,farafangana,-22.8167,47.8333,22.09,87,2,0.75,MG,1683577604
427,belyy yar,53.6039,91.3903,9.94,50,0,2.0,RU,1683577604
428,polyarnyy,69.1989,33.4478,0.96,97,100,6.06,RU,1683577604
429,kingsville,27.5159,-97.8561,32.14,69,75,7.72,US,1683577427
430,manggar,-2.8833,108.2667,27.37,80,97,3.13,ID,1683577605
431,kalevala,65.2,31.1667,2.04,100,100,2.47,RU,1683577453
432,la'ie,21.6477,-157.9253,27.98,69,18,3.58,US,1683577605
433,novo aripuana,-5.1206,-60.3797,27.73,94,100,0.26,BR,1683577605
434,makubetsu,45.3714,141.8211,6.78,86,71,9.08,JP,1683577606
435,inhambane,-23.865,35.3833,20.88,90,20,2.2,MZ,1683577606
436,butembo,0.15,29.2833,15.57,87,91,0.99,CD,1683577606
437,chadron,42.8294,-102.9999,23.82,23,0,6.69,US,1683577606
438,gaalkacyo,6.7697,47.4308,28.31,60,49,7.12,SO,1683577607
439,lugoba,-6.45,38.3333,20.7,96,37,1.09,TZ,1683577607
440,freetown,8.484,-13.2299,26.84,78,75,4.12,SL,1683577607
441,villa regina,-39.1,-67.0667,19.43,20,61,4.36,AR,1683577607
442,kachia,9.8667,7.95,28.47,44,32,2.11,NG,1683577608
443,santa ana de yacuma,-13.75,-65.4333,24.97,83,100,3.09,BO,1683577608
444,san antonio,29.4241,-98.4936,33.47,61,75,7.2,US,1683577409
445,broken hill,-31.95,141.4333,7.15,89,5,4.44,AU,1683577608
446,kikvidze,50.7416,43.0518,6.99,61,100,3.98,RU,1683577608
447,tibanbang,6.6315,126.1055,27.34,80,81,2.14,PH,1683577609
448,al faw,29.9776,48.4741,28.0,40,73,1.7,IQ,1683577609
449,rakops,-21.0167,24.3333,23.59,30,0,2.19,BW,1683577609
450,saint-joseph,-21.3667,55.6167,23.21,80,99,4.17,RE,1683577609
451,urzhar,47.093,81.6294,12.7,52,2,1.75,KZ,1683577610
452,afif,23.9065,42.9172,28.98,15,65,3.74,SA,1683577610
453,benguela,-12.5763,13.4055,26.21,83,83,0.41,AO,1683577610
454,sungai besar,3.6746,100.9867,25.85,86,100,2.92,MY,1683577610
455,la gi,10.6667,107.7833,27.19,84,100,1.86,VN,1683577610
456,maramba,-5.05,38.6167,17.33,94,89,1.07,TZ,1683577611
457,andover,51.2083,-1.4825,13.98,99,100,4.12,GB,1683577611
458,ampanihy,-24.7,44.75,21.9,78,19,3.2,MG,1683577611
459,laguna,38.421,-121.4238,19.6,59,100,5.66,US,1683577611
460,usogorsk,63.4106,48.6872,2.25,81,98,4.22,RU,1683577613
461,kyzylorda,44.8528,65.5092,14.01,28,0,3.0,KZ,1683577613
462,leipheim,48.45,10.2228,13.54,93,26,2.27,DE,1683577613
463,skovorodino,53.9833,123.9167,-2.71,72,0,2.42,RU,1683577613
464,tromso,69.6496,18.957,5.21,87,75,7.72,NO,1683577613
465,pleiku,13.9833,108.0,20.63,97,100,1.15,VN,1683577614
466,naifaru,5.4444,73.3657,28.79,76,15,5.62,MV,1683577614
467,timbuktu,16.7735,-3.0074,35.52,20,100,3.15,ML,1683577614
468,alice springs,-23.7,133.8833,-1.25,80,0,5.55,AU,1683577448
469,rosetta,31.4044,30.4164,17.71,83,0,4.28,EG,1683577615
470,nili,33.7218,66.1302,13.17,28,0,2.43,AF,1683577615
471,ceerigaabo,10.6162,47.368,19.7,54,25,2.19,SO,1683577615
472,dalhart,36.0595,-102.5133,27.01,26,0,7.2,US,1683577615
473,quelimane,-17.8786,36.8883,23.97,83,20,0.0,MZ,1683577616
474,namtsy,62.7161,129.6658,-8.92,78,17,3.32,RU,1683577616
475,port isabel,26.0734,-97.2086,32.05,72,100,4.92,US,1683577616
476,gargalianoi,37.0667,21.6333,17.42,66,100,2.82,GR,1683577616
477,carutapera,-1.195,-46.02,27.69,80,71,2.78,BR,1683577617
478,saint-philippe,-21.3585,55.7679,23.77,81,99,4.38,RE,1683577617
479,darwin,-12.4611,130.8418,22.99,53,69,4.63,AU,1683577617
480,bonthe,7.5264,-12.505,28.4,79,100,4.16,SL,1683577617
481,powell,40.1578,-83.0752,23.69,72,40,3.09,US,1683577482
482,champerico,14.3,-91.9167,37.3,63,3,6.41,GT,1683577618
483,fada,9.5667,8.3,26.69,53,22,1.21,NG,1683577618
484,mangrol,21.1167,70.1167,27.7,77,17,4.69,IN,1683577618
485,waspan,14.7419,-83.9717,36.1,30,99,4.5,NI,1683577619
486,akureyri,65.6835,-18.0878,8.96,76,75,5.14,IS,1683577579
487,rexburg,43.826,-111.7897,13.99,35,75,3.09,US,1683577619
488,salalah,17.0151,54.0924,28.05,74,0,1.54,OM,1683577619
489,yarkovo,57.4028,67.0786,2.86,47,0,2.3,RU,1683577619
490,yigo village,13.5361,144.8886,26.62,83,0,3.6,GU,1683577620
491,kozarska dubica,45.1767,16.8094,12.06,95,100,0.76,BA,1683577620
492,tegueste,28.5167,-16.3167,19.53,77,40,7.15,ES,1683577620
493,vera,-29.4593,-60.2126,24.89,43,0,2.54,AR,1683577621
494,chernyshevsk,52.5243,117.0174,3.42,43,4,1.06,RU,1683577621
495,alapli,41.1694,31.3792,11.62,93,98,2.11,TR,1683577621
496,rio grande,-32.035,-52.0986,23.06,68,0,5.58,BR,1683577621
497,miyaly,48.8844,53.7836,13.25,48,100,9.33,KZ,1683577622
498,zhaotong,27.3167,103.7167,11.31,92,96,2.16,CN,1683577622
499,nantucket,41.2835,-70.0995,19.06,67,0,4.63,US,1683577365
500,kurakhovo,47.9852,37.2821,8.46,77,100,3.83,UA,1683577623
501,adjumani,3.3779,31.7909,20.95,91,100,1.43,UG,1683577623
502,alvorada,-12.48,-49.1247,29.54,46,100,1.5,BR,1683577624
503,al ghayzah,16.2079,52.176,27.69,60,0,2.17,YE,1683577624
504,tomatlan,19.9333,-105.25,34.16,45,6,5.67,MX,1683577624
505,inderbor,48.55,51.7833,10.59,56,100,9.79,KZ,1683577624
506,joaquin v. gonzalez,-25.0833,-64.1833,25.41,36,85,2.21,AR,1683577625
507,benalla,-36.55,145.9833,8.5,94,1,2.58,AU,1683577625
508,santa elena de uairen,4.6167,-61.1333,24.19,75,99,3.72,VE,1683577343
509,parauapebas,-6.0675,-49.9022,31.99,61,40,2.06,BR,1683577626
510,papao,-17.75,-149.55,28.82,67,94,2.55,PF,1683577626
511,puerto quijarro,-17.7833,-57.7667,24.79,91,100,2.05,BO,1683577627
512,kirando,-7.4167,30.6,22.88,72,7,2.57,TZ,1683577627
513,howrah,22.5892,88.3103,31.0,74,20,2.57,IN,1683577627
514,undurkhaan,47.3194,110.6556,11.17,35,92,2.16,MN,1683577628
515,tubarjal,30.4999,38.216,22.6,27,6,5.88,SA,1683577628
516,puerto rico,-26.796,-55.024,18.76,52,100,2.3,AR,1683577329
517,beidao,34.5686,105.8933,10.81,97,100,0.82,CN,1683577629
518,recani,31.2846,-4.2688,29.3,13,0,2.49,MA,1683577629
519,bakhchysarai,44.75,33.8667,10.58,90,100,2.08,UA,1683577629
520,sault ste. marie,46.5168,-84.3333,12.9,50,75,5.66,CA,1683577572
521,fittja,59.2487,17.8599,8.84,52,0,2.57,SE,1683577630
522,san luis de la loma,17.2706,-100.8939,32.5,50,2,4.54,MX,1683577631
523,shimoda,34.6667,138.95,10.06,71,100,6.56,JP,1683577631
524,flin flon,54.7682,-101.865,19.91,30,20,3.6,CA,1683577631
525,horsham,51.064,-0.3272,14.2,93,75,2.57,GB,1683577633
526,north battleford,52.7834,-108.2847,17.05,39,75,10.29,CA,1683577337
527,zaragoza,41.6561,-0.8773,24.45,23,0,5.66,ES,1683577365
528,bavly,54.393,53.2602,2.81,55,6,2.53,RU,1683577634
529,krasnoslobodsk,48.7072,44.5714,11.9,37,0,7.0,RU,1683577634
530,saldanha,-33.0117,17.9442,15.44,85,3,5.83,ZA,1683577635
531,malvan,16.0667,73.4667,28.22,80,100,3.87,IN,1683577635
532,robertsport,6.7533,-11.3686,28.36,82,68,6.51,LR,1683577635
533,tanjung pandan,-2.75,107.65,25.98,88,99,2.77,ID,1683577636
534,shchuchyn,53.6014,24.7465,5.34,62,38,2.31,BY,1683577636
535,bilbays,30.4204,31.5622,21.46,71,0,3.33,EG,1683577636
536,choyr,46.3611,108.3611,10.78,31,100,3.34,MN,1683577637
537,lensk,60.7253,114.9278,1.03,95,98,1.43,RU,1683577637
538,fairfield,41.2668,-73.3162,24.87,35,0,6.17,US,1683577531
539,smithers,54.7804,-127.1743,14.18,38,20,3.09,CA,1683577638
540,namdrik,5.5994,168.1028,28.26,81,100,7.34,MH,1683577638
541,nar'yan-mar,67.6713,53.087,-0.24,96,100,6.99,RU,1683577638
542,guankou,28.15,113.6333,16.89,77,0,1.35,CN,1683577639
543,uran,18.8769,72.9397,28.98,73,79,2.69,IN,1683577639
544,acarau,-2.8856,-40.12,27.4,82,14,3.92,BR,1683577541
545,klyuchi,52.2667,79.1667,18.11,25,31,3.76,RU,1683577640
546,joshimath,30.5667,79.5667,11.07,69,89,2.97,IN,1683577640
547,berdigestyakh,62.0989,126.6992,-16.38,99,48,0.44,RU,1683577640
548,manokwari,-0.8667,134.0833,26.56,79,100,0.99,ID,1683577641
549,ribeira brava,32.65,-17.0667,26.35,58,3,2.82,PT,1683577641
550,kalmunai,7.4167,81.8167,26.54,79,100,2.54,LK,1683577641
551,poltavka,54.3663,71.7632,10.23,44,100,3.18,RU,1683577642
552,dire,12.2833,-10.9667,25.49,72,100,3.22,ML,1683577642
553,kenai,60.5544,-151.2583,9.03,43,100,2.57,US,1683577643
554,ottawa,45.4112,-75.6981,18.02,25,20,5.66,CA,1683577492
555,aral,40.5156,81.2636,14.3,18,46,4.37,CN,1683577643
556,torghay,49.6339,63.4981,15.43,51,96,4.41,KZ,1683577644
557,grootfontein,-19.5667,18.1167,12.76,71,4,1.03,NA,1683577644
558,talagang,32.9297,72.4158,21.29,44,0,2.58,PK,1683577644
559,kone,-21.0595,164.8658,21.59,87,100,1.18,NC,1683577645
560,sao vicente,-23.9631,-46.3919,31.1,47,3,3.13,BR,1683577645
